{
  "adcode": "430000",
  "name": "湖南省",
  "postal_code": "410000",
  "cities": [
    {
      "adcode": "430100",
      "name": "长沙市",
      "postal_code": "410005",
      "districts": [
        {
          "adcode": "430102",
          "name": "芙蓉区",
          "postal_code": "410011",
          "longitude": "112.988094",
          "latitude": "28.193106"
        },
        {
          "adcode": "430103",
          "name": "天心区",
          "postal_code": "410004",
          "longitude": "112.97307",
          "latitude": "28.192375"
        },
        {
          "adcode": "430104",
          "name": "岳麓区",
          "postal_code": "410006",
          "longitude": "112.911591",
          "latitude": "28.213044"
        },
        {
          "adcode": "430105",
          "name": "开福区",
          "postal_code": "410008",
          "longitude": "112.985525",
          "latitude": "28.201336"
        },
        {
          "adcode": "430111",
          "name": "雨花区",
          "postal_code": "410011",
          "longitude": "113.016337",
          "latitude": "28.109937"
        },
        {
          "adcode": "430112",
          "name": "望城区",
          "postal_code": "410200",
          "longitude": "112.819549",
          "latitude": "28.347458"
        },
        {
          "adcode": "430121",
          "name": "长沙县",
          "postal_code": "410100",
          "longitude": "113.080098",
          "latitude": "28.237888"
        },
        {
          "adcode": "430181",
          "name": "浏阳市",
          "postal_code": "410300",
          "longitude": "113.633301",
          "latitude": "28.141112"
        },
        {
          "adcode": "430182",
          "name": "宁乡市",
          "postal_code": "410600",
          "longitude": "112.553182",
          "latitude": "28.253928"
        }
      ],
      "longitude": "112.982279",
      "latitude": "28.19409"
    },
    {
      "adcode": "430200",
      "name": "株洲市",
      "postal_code": "412000",
      "districts": [
        {
          "adcode": "430202",
          "name": "荷塘区",
          "postal_code": "412000",
          "longitude": "113.162548",
          "latitude": "27.833036"
        },
        {
          "adcode": "430203",
          "name": "芦淞区",
          "postal_code": "412000",
          "longitude": "113.155169",
          "latitude": "27.827246"
        },
        {
          "adcode": "430204",
          "name": "石峰区",
          "postal_code": "412005",
          "longitude": "113.11295",
          "latitude": "27.871945"
        },
        {
          "adcode": "430211",
          "name": "天元区",
          "postal_code": "412007",
          "longitude": "113.136252",
          "latitude": "27.826909"
        },
        {
          "adcode": "430212",
          "name": "渌口区",
          "postal_code": "412000",
          "longitude": "113.146175",
          "latitude": "27.705844"
        },
        {
          "adcode": "430223",
          "name": "攸县",
          "postal_code": "412300",
          "longitude": "113.345774",
          "latitude": "27.000071"
        },
        {
          "adcode": "430224",
          "name": "茶陵县",
          "postal_code": "412400",
          "longitude": "113.546509",
          "latitude": "26.789534"
        },
        {
          "adcode": "430225",
          "name": "炎陵县",
          "postal_code": "412500",
          "longitude": "113.776884",
          "latitude": "26.489459"
        },
        {
          "adcode": "430281",
          "name": "醴陵市",
          "postal_code": "412200",
          "longitude": "113.507157",
          "latitude": "27.657873"
        }
      ],
      "longitude": "113.151737",
      "latitude": "27.835806"
    },
    {
      "adcode": "430300",
      "name": "湘潭市",
      "postal_code": "411100",
      "districts": [
        {
          "adcode": "430302",
          "name": "雨湖区",
          "postal_code": "411100",
          "longitude": "112.907427",
          "latitude": "27.86077"
        },
        {
          "adcode": "430304",
          "name": "岳塘区",
          "postal_code": "411101",
          "longitude": "112.927707",
          "latitude": "27.828854"
        },
        {
          "adcode": "430321",
          "name": "湘潭县",
          "postal_code": "411200",
          "longitude": "112.952829",
          "latitude": "27.778601"
        },
        {
          "adcode": "430381",
          "name": "湘乡市",
          "postal_code": "411400",
          "longitude": "112.525217",
          "latitude": "27.734918"
        },
        {
          "adcode": "430382",
          "name": "韶山市",
          "postal_code": "411300",
          "longitude": "112.52848",
          "latitude": "27.922682"
        }
      ],
      "longitude": "112.944052",
      "latitude": "27.82973"
    },
    {
      "adcode": "430400",
      "name": "衡阳市",
      "postal_code": "421001",
      "districts": [
        {
          "adcode": "430405",
          "name": "珠晖区",
          "postal_code": "421002",
          "longitude": "112.626324",
          "latitude": "26.891063"
        },
        {
          "adcode": "430406",
          "name": "雁峰区",
          "postal_code": "421001",
          "longitude": "112.612241",
          "latitude": "26.893694"
        },
        {
          "adcode": "430407",
          "name": "石鼓区",
          "postal_code": "421001",
          "longitude": "112.607635",
          "latitude": "26.903908"
        },
        {
          "adcode": "430408",
          "name": "蒸湘区",
          "postal_code": "421001",
          "longitude": "112.570608",
          "latitude": "26.89087"
        },
        {
          "adcode": "430412",
          "name": "南岳区",
          "postal_code": "421900",
          "longitude": "112.734147",
          "latitude": "27.240536"
        },
        {
          "adcode": "430421",
          "name": "衡阳县",
          "postal_code": "421200",
          "longitude": "112.379643",
          "latitude": "26.962388"
        },
        {
          "adcode": "430422",
          "name": "衡南县",
          "postal_code": "421100",
          "longitude": "112.677459",
          "latitude": "26.739973"
        },
        {
          "adcode": "430423",
          "name": "衡山县",
          "postal_code": "421300",
          "longitude": "112.86971",
          "latitude": "27.234808"
        },
        {
          "adcode": "430424",
          "name": "衡东县",
          "postal_code": "421400",
          "longitude": "112.950412",
          "latitude": "27.083531"
        },
        {
          "adcode": "430426",
          "name": "祁东县",
          "postal_code": "421600",
          "longitude": "112.111192",
          "latitude": "26.787109"
        },
        {
          "adcode": "430481",
          "name": "耒阳市",
          "postal_code": "421800",
          "longitude": "112.847215",
          "latitude": "26.414162"
        },
        {
          "adcode": "430482",
          "name": "常宁市",
          "postal_code": "421500",
          "longitude": "112.396821",
          "latitude": "26.406773"
        }
      ],
      "longitude": "112.607693",
      "latitude": "26.900358"
    },
    {
      "adcode": "430500",
      "name": "邵阳市",
      "postal_code": "422000",
      "districts": [
        {
          "adcode": "430502",
          "name": "双清区",
          "postal_code": "422001",
          "longitude": "111.479756",
          "latitude": "27.240001"
        },
        {
          "adcode": "430503",
          "name": "大祥区",
          "postal_code": "422000",
          "longitude": "111.462968",
          "latitude": "27.233593"
        },
        {
          "adcode": "430511",
          "name": "北塔区",
          "postal_code": "422007",
          "longitude": "111.452315",
          "latitude": "27.245688"
        },
        {
          "adcode": "430522",
          "name": "新邵县",
          "postal_code": "422900",
          "longitude": "111.459762",
          "latitude": "27.311429"
        },
        {
          "adcode": "430523",
          "name": "邵阳县",
          "postal_code": "422100",
          "longitude": "111.2757",
          "latitude": "26.989713"
        },
        {
          "adcode": "430524",
          "name": "隆回县",
          "postal_code": "422200",
          "longitude": "111.038785",
          "latitude": "27.116002"
        },
        {
          "adcode": "430525",
          "name": "洞口县",
          "postal_code": "422300",
          "longitude": "110.579212",
          "latitude": "27.062286"
        },
        {
          "adcode": "430527",
          "name": "绥宁县",
          "postal_code": "422600",
          "longitude": "110.155075",
          "latitude": "26.580622"
        },
        {
          "adcode": "430528",
          "name": "新宁县",
          "postal_code": "422700",
          "longitude": "110.859115",
          "latitude": "26.438912"
        },
        {
          "adcode": "430529",
          "name": "城步苗族自治县",
          "postal_code": "422500",
          "longitude": "110.313226",
          "latitude": "26.363575"
        },
        {
          "adcode": "430581",
          "name": "武冈市",
          "postal_code": "422400",
          "longitude": "110.636804",
          "latitude": "26.732086"
        },
        {
          "adcode": "430582",
          "name": "邵东市",
          "postal_code": "422800",
          "longitude": "111.743168",
          "latitude": "27.257273"
        }
      ],
      "longitude": "111.46923",
      "latitude": "27.237842"
    },
    {
      "adcode": "430600",
      "name": "岳阳市",
      "postal_code": "414000",
      "districts": [
        {
          "adcode": "430602",
          "name": "岳阳楼区",
          "postal_code": "414000",
          "longitude": "113.120751",
          "latitude": "29.366784"
        },
        {
          "adcode": "430603",
          "name": "云溪区",
          "postal_code": "414009",
          "longitude": "113.27387",
          "latitude": "29.473395"
        },
        {
          "adcode": "430611",
          "name": "君山区",
          "postal_code": "414005",
          "longitude": "113.004082",
          "latitude": "29.438062"
        },
        {
          "adcode": "430621",
          "name": "岳阳县",
          "postal_code": "414100",
          "longitude": "113.116073",
          "latitude": "29.144843"
        },
        {
          "adcode": "430623",
          "name": "华容县",
          "postal_code": "414200",
          "longitude": "112.559369",
          "latitude": "29.524107"
        },
        {
          "adcode": "430624",
          "name": "湘阴县",
          "postal_code": "414600",
          "longitude": "112.889748",
          "latitude": "28.677498"
        },
        {
          "adcode": "430626",
          "name": "平江县",
          "postal_code": "414500",
          "longitude": "113.593751",
          "latitude": "28.701523"
        },
        {
          "adcode": "430681",
          "name": "汨罗市",
          "postal_code": "414400",
          "longitude": "113.079419",
          "latitude": "28.803149"
        },
        {
          "adcode": "430682",
          "name": "临湘市",
          "postal_code": "414300",
          "longitude": "113.450809",
          "latitude": "29.471594"
        }
      ],
      "longitude": "113.132855",
      "latitude": "29.37029"
    },
    {
      "adcode": "430700",
      "name": "常德市",
      "postal_code": "415000",
      "districts": [
        {
          "adcode": "430702",
          "name": "武陵区",
          "postal_code": "415000",
          "longitude": "111.690718",
          "latitude": "29.040477"
        },
        {
          "adcode": "430703",
          "name": "鼎城区",
          "postal_code": "415101",
          "longitude": "111.685327",
          "latitude": "29.014426"
        },
        {
          "adcode": "430721",
          "name": "安乡县",
          "postal_code": "415600",
          "longitude": "112.172289",
          "latitude": "29.414483"
        },
        {
          "adcode": "430722",
          "name": "汉寿县",
          "postal_code": "415900",
          "longitude": "111.968506",
          "latitude": "28.907319"
        },
        {
          "adcode": "430723",
          "name": "澧县",
          "postal_code": "415500",
          "longitude": "111.761682",
          "latitude": "29.64264"
        },
        {
          "adcode": "430724",
          "name": "临澧县",
          "postal_code": "415200",
          "longitude": "111.645602",
          "latitude": "29.443217"
        },
        {
          "adcode": "430725",
          "name": "桃源县",
          "postal_code": "415700",
          "longitude": "111.484503",
          "latitude": "28.902734"
        },
        {
          "adcode": "430726",
          "name": "石门县",
          "postal_code": "415300",
          "longitude": "111.379087",
          "latitude": "29.584703"
        },
        {
          "adcode": "430781",
          "name": "津市市",
          "postal_code": "415400",
          "longitude": "111.879609",
          "latitude": "29.630867"
        }
      ],
      "longitude": "111.691347",
      "latitude": "29.040225"
    },
    {
      "adcode": "430800",
      "name": "张家界市",
      "postal_code": "427000",
      "districts": [
        {
          "adcode": "430802",
          "name": "永定区",
          "postal_code": "427000",
          "longitude": "110.484559",
          "latitude": "29.125961"
        },
        {
          "adcode": "430811",
          "name": "武陵源区",
          "postal_code": "427400",
          "longitude": "110.54758",
          "latitude": "29.347827"
        },
        {
          "adcode": "430821",
          "name": "慈利县",
          "postal_code": "427200",
          "longitude": "111.132702",
          "latitude": "29.423876"
        },
        {
          "adcode": "430822",
          "name": "桑植县",
          "postal_code": "427100",
          "longitude": "110.164039",
          "latitude": "29.399939"
        }
      ],
      "longitude": "110.479921",
      "latitude": "29.127401"
    },
    {
      "adcode": "430900",
      "name": "益阳市",
      "postal_code": "413000",
      "districts": [
        {
          "adcode": "430902",
          "name": "资阳区",
          "postal_code": "413001",
          "longitude": "112.33084",
          "latitude": "28.592771"
        },
        {
          "adcode": "430903",
          "name": "赫山区",
          "postal_code": "413002",
          "longitude": "112.360946",
          "latitude": "28.568327"
        },
        {
          "adcode": "430921",
          "name": "南县",
          "postal_code": "413200",
          "longitude": "112.410399",
          "latitude": "29.372181"
        },
        {
          "adcode": "430922",
          "name": "桃江县",
          "postal_code": "413400",
          "longitude": "112.139732",
          "latitude": "28.520993"
        },
        {
          "adcode": "430923",
          "name": "安化县",
          "postal_code": "413500",
          "longitude": "111.221824",
          "latitude": "28.377421"
        },
        {
          "adcode": "430981",
          "name": "沅江市",
          "postal_code": "413100",
          "longitude": "112.361088",
          "latitude": "28.839713"
        }
      ],
      "longitude": "112.355042",
      "latitude": "28.570066"
    },
    {
      "adcode": "431000",
      "name": "郴州市",
      "postal_code": "423000",
      "districts": [
        {
          "adcode": "431002",
          "name": "北湖区",
          "postal_code": "423000",
          "longitude": "113.032208",
          "latitude": "25.792628"
        },
        {
          "adcode": "431003",
          "name": "苏仙区",
          "postal_code": "423000",
          "longitude": "113.038698",
          "latitude": "25.793157"
        },
        {
          "adcode": "431021",
          "name": "桂阳县",
          "postal_code": "424400",
          "longitude": "112.734466",
          "latitude": "25.737447"
        },
        {
          "adcode": "431022",
          "name": "宜章县",
          "postal_code": "424200",
          "longitude": "112.947884",
          "latitude": "25.394345"
        },
        {
          "adcode": "431023",
          "name": "永兴县",
          "postal_code": "423300",
          "longitude": "113.114819",
          "latitude": "26.129392"
        },
        {
          "adcode": "431024",
          "name": "嘉禾县",
          "postal_code": "424500",
          "longitude": "112.370618",
          "latitude": "25.587309"
        },
        {
          "adcode": "431025",
          "name": "临武县",
          "postal_code": "424300",
          "longitude": "112.564589",
          "latitude": "25.279119"
        },
        {
          "adcode": "431026",
          "name": "汝城县",
          "postal_code": "424100",
          "longitude": "113.685686",
          "latitude": "25.553759"
        },
        {
          "adcode": "431027",
          "name": "桂东县",
          "postal_code": "423500",
          "longitude": "113.945879",
          "latitude": "26.073917"
        },
        {
          "adcode": "431028",
          "name": "安仁县",
          "postal_code": "423600",
          "longitude": "113.27217",
          "latitude": "26.708625"
        },
        {
          "adcode": "431081",
          "name": "资兴市",
          "postal_code": "423400",
          "longitude": "113.23682",
          "latitude": "25.974152"
        }
      ],
      "longitude": "113.032067",
      "latitude": "25.793589"
    },
    {
      "adcode": "431100",
      "name": "永州市",
      "postal_code": "425000",
      "districts": [
        {
          "adcode": "431102",
          "name": "零陵区",
          "postal_code": "425000",
          "longitude": "111.626348",
          "latitude": "26.223347"
        },
        {
          "adcode": "431103",
          "name": "冷水滩区",
          "postal_code": "425100",
          "longitude": "111.607156",
          "latitude": "26.434364"
        },
        {
          "adcode": "431121",
          "name": "祁阳市",
          "postal_code": "426100",
          "longitude": "111.85734",
          "latitude": "26.585929"
        },
        {
          "adcode": "431122",
          "name": "东安县",
          "postal_code": "425900",
          "longitude": "111.313035",
          "latitude": "26.397278"
        },
        {
          "adcode": "431123",
          "name": "双牌县",
          "postal_code": "425200",
          "longitude": "111.662146",
          "latitude": "25.959397"
        },
        {
          "adcode": "431124",
          "name": "道县",
          "postal_code": "425300",
          "longitude": "111.591614",
          "latitude": "25.518444"
        },
        {
          "adcode": "431125",
          "name": "江永县",
          "postal_code": "425400",
          "longitude": "111.346803",
          "latitude": "25.268154"
        },
        {
          "adcode": "431126",
          "name": "宁远县",
          "postal_code": "425600",
          "longitude": "111.944529",
          "latitude": "25.584112"
        },
        {
          "adcode": "431127",
          "name": "蓝山县",
          "postal_code": "425800",
          "longitude": "112.194195",
          "latitude": "25.375255"
        },
        {
          "adcode": "431128",
          "name": "新田县",
          "postal_code": "425700",
          "longitude": "112.220341",
          "latitude": "25.906927"
        },
        {
          "adcode": "431129",
          "name": "江华瑶族自治县",
          "postal_code": "425500",
          "longitude": "111.577276",
          "latitude": "25.182596"
        }
      ],
      "longitude": "111.608019",
      "latitude": "26.434516"
    },
    {
      "adcode": "431200",
      "name": "怀化市",
      "postal_code": "418000",
      "districts": [
        {
          "adcode": "431202",
          "name": "鹤城区",
          "postal_code": "418000",
          "longitude": "109.982242",
          "latitude": "27.548474"
        },
        {
          "adcode": "431221",
          "name": "中方县",
          "postal_code": "418005",
          "longitude": "109.948061",
          "latitude": "27.43736"
        },
        {
          "adcode": "431222",
          "name": "沅陵县",
          "postal_code": "419600",
          "longitude": "110.399161",
          "latitude": "28.455554"
        },
        {
          "adcode": "431223",
          "name": "辰溪县",
          "postal_code": "419500",
          "longitude": "110.196953",
          "latitude": "28.005474"
        },
        {
          "adcode": "431224",
          "name": "溆浦县",
          "postal_code": "419300",
          "longitude": "110.593373",
          "latitude": "27.903802"
        },
        {
          "adcode": "431225",
          "name": "会同县",
          "postal_code": "418300",
          "longitude": "109.720785",
          "latitude": "26.870789"
        },
        {
          "adcode": "431226",
          "name": "麻阳苗族自治县",
          "postal_code": "419400",
          "longitude": "109.802807",
          "latitude": "27.865991"
        },
        {
          "adcode": "431227",
          "name": "新晃侗族自治县",
          "postal_code": "419200",
          "longitude": "109.174443",
          "latitude": "27.359897"
        },
        {
          "adcode": "431228",
          "name": "芷江侗族自治县",
          "postal_code": "419100",
          "longitude": "109.687777",
          "latitude": "27.437996"
        },
        {
          "adcode": "431229",
          "name": "靖州苗族侗族自治县",
          "postal_code": "418400",
          "longitude": "109.691159",
          "latitude": "26.573511"
        },
        {
          "adcode": "431230",
          "name": "通道侗族自治县",
          "postal_code": "418500",
          "longitude": "109.783359",
          "latitude": "26.158349"
        },
        {
          "adcode": "431281",
          "name": "洪江市",
          "postal_code": "418116",
          "longitude": "109.831765",
          "latitude": "27.201876"
        }
      ],
      "longitude": "109.97824",
      "latitude": "27.550082"
    },
    {
      "adcode": "431300",
      "name": "娄底市",
      "postal_code": "417000",
      "districts": [
        {
          "adcode": "431302",
          "name": "娄星区",
          "postal_code": "417000",
          "longitude": "112.008486",
          "latitude": "27.726643"
        },
        {
          "adcode": "431321",
          "name": "双峰县",
          "postal_code": "417700",
          "longitude": "112.198245",
          "latitude": "27.459126"
        },
        {
          "adcode": "431322",
          "name": "新化县",
          "postal_code": "417600",
          "longitude": "111.306747",
          "latitude": "27.737456"
        },
        {
          "adcode": "431381",
          "name": "冷水江市",
          "postal_code": "417500",
          "longitude": "111.434674",
          "latitude": "27.685759"
        },
        {
          "adcode": "431382",
          "name": "涟源市",
          "postal_code": "417100",
          "longitude": "111.670847",
          "latitude": "27.692301"
        }
      ],
      "longitude": "112.008497",
      "latitude": "27.728136"
    },
    {
      "adcode": "433100",
      "name": "湘西土家族苗族自治州",
      "postal_code": "416000",
      "districts": [
        {
          "adcode": "433101",
          "name": "吉首市",
          "postal_code": "416000",
          "longitude": "109.738273",
          "latitude": "28.314827"
        },
        {
          "adcode": "433122",
          "name": "泸溪县",
          "postal_code": "416100",
          "longitude": "110.214428",
          "latitude": "28.214516"
        },
        {
          "adcode": "433123",
          "name": "凤凰县",
          "postal_code": "416200",
          "longitude": "109.599191",
          "latitude": "27.948308"
        },
        {
          "adcode": "433124",
          "name": "花垣县",
          "postal_code": "416400",
          "longitude": "109.479063",
          "latitude": "28.581352"
        },
        {
          "adcode": "433125",
          "name": "保靖县",
          "postal_code": "416500",
          "longitude": "109.651445",
          "latitude": "28.709605"
        },
        {
          "adcode": "433126",
          "name": "古丈县",
          "postal_code": "416300",
          "longitude": "109.949592",
          "latitude": "28.616973"
        },
        {
          "adcode": "433127",
          "name": "永顺县",
          "postal_code": "416700",
          "longitude": "109.853292",
          "latitude": "28.998068"
        },
        {
          "adcode": "433130",
          "name": "龙山县",
          "postal_code": "416800",
          "longitude": "109.441189",
          "latitude": "29.453438"
        }
      ],
      "longitude": "109.739735",
      "latitude": "28.314296"
    }
  ],
  "longitude": "112.982279",
  "latitude": "28.19409"
}
